{"type": "FeatureCollection", "features": [
{"type": "Feature", "properties": {"name": "Ouzoud", "description": "status_parsable:OK", "styleUrl": "#msn_target"},
 "geometry": {"type": "Point", "coordinates": [-6.719213300000001, 32.0066466, 0.0]}}, 
{"type": "Feature", "properties": {"name": "Beni Mellal", "description": "status_parsable:DEAD", "styleUrl": "#msn_target"}, 
"geometry": {"type": "Point", "coordinates": [-6.360833, 32.339444, 0.0]}}, 
{"type": "Feature", "properties": {"name": "Oukaimeden Observatory", "description": "status_parsable:OK", "styleUrl": "#msn_target"},
 "geometry": {"type": "Point", "coordinates": [-7.864113499284641, 31.20881336805763, 0.0]}}, 
{"type": "Feature", "properties": {"name": "Agoudal", "description": "status_parsable:OK", "styleUrl": "#msn_target"}, 
"geometry": {"type": "Point", "coordinates": [-5.48614666667, 32.00652, 0.0]}},
{"type": "Feature", "properties": {"name": "Ait-Ben-Haddou", "description": "status_parsable:OK", "styleUrl": "#msn_target"}, 
"geometry": {"type": "Point", "coordinates": [-7.131805, 31.0455666667, 0.0]}},
{"type": "Feature", "properties": {"name": "Ifrane", "description": "status_parsable:OK", "styleUrl": "#msn_target4200"}, 
"geometry": {"type": "Point", "coordinates": [-5.133537, 33.52745, 0.0]}},
{"type": "Feature", "properties": {"name": "Khenifra", "description": "status_parsable:FUTURE_SITE", "styleUrl": "#msn_target420"}, 
"geometry": {"type": "Point", "coordinates": [-5.662671606993081, 32.92821318405081, 0.0]}},
{"type": "Feature", "properties": {"name": "Tata", "description": "status_parsable:FUTURE_SITE", "styleUrl": "#msn_target420"},
 "geometry": {"type": "Point", "coordinates": [-7.977738526399516, 29.7488324817901, 0.0]}},
{"type": "Feature", "properties": {"name": "Taroudant", "description": "status_parsable:FUTURE_SITE", "styleUrl": "#msn_target420"},
 "geometry": {"type": "Point", "coordinates": [-8.876917068461994, 30.48188362169925, 0.0]}}],
"name": "NWA_status_map"}